pn,pe,pd,vn,ve,vd,an,ae,ad,roll,pitch,yaw,q0,q1,q2,q3,lat,lng,alt,sat,ax,ay,az,h_ax,h_ay,h_az,gx,gy,gz,mx,my,mz,baro_temp,baro_press,baro_alt,batt_voltage,batt_percent,launch_lat,launch_lng,launch_alt,system_status,system_time,rssi,snr,connectionstatus
0.0,0.0,0.0,0.0,0.0,0.0,0.0,0.0,0.0,1.123272180557251,-1.452989101409912,-1.3310081958770752,-0.7168123722076416,0.032646045088768005,0.6875262260437012,0.11355376243591309,51.49843215942383,-0.17762839794158936,62854,7,0.9912109375,0.10205078125,0.03662109375,0.04885197803378105,0.04885197803378105,0.04885197803378105,-0.1220703125,-0.244140625,-3.11279296875,-1.6504179239273071,0.008671943098306656,-1.2219730615615845,40.880001068115234,110226.0,-715.8994750976562,1588,65356,0.0,0.0,0,1384450,1422490,-96,0.0,True
0.0,0.0,0.0,0.0,0.0,0.0,0.0,0.0,0.0,1.382573127746582,-1.4368398189544678,-1.6101925373077393,-0.7047370672225952,0.031988199800252914,0.6973075866699219,0.1282387673854828,51.4984245300293,-0.17763209342956543,62879,7,1.0673828125,0.01708984375,-0.0341796875,-0.0,-0.0,-0.0,-10.986328125,7.6904296875,-3.173828125,-1.6378779411315918,0.008573469705879688,-1.2068772315979004,40.880001068115234,110227.0,-715.978759765625,1588,65356,0.0,0.0,0,1384450,1423093,-99,-0.25,True
0.0,0.0,0.0,0.0,0.0,0.0,0.0,0.0,0.0,-0.0572480782866478,-1.4423792362213135,-0.04152918606996536,-0.751412570476532,0.035091154277324677,0.6583296060562134,0.034361954778432846,51.49842071533203,-0.17763249576091766,62523,7,0.98193359375,-0.06396484375,0.1201171875,-0.0,-0.0,-0.0,-1.220703125,17.578125,8.72802734375,-1.678353190422058,0.008911850862205029,-1.2561606168746948,40.849998474121094,110248.0,-717.6116943359375,1586,65355,0.0,0.0,0,1384450,1423695,-98,-0.75,True
0.0,0.0,0.0,0.0,0.0,0.0,0.0,0.0,0.0,-0.5822705030441284,-1.4754352569580078,0.5387875437736511,-0.7358849048614502,0.033862076699733734,0.6765162944793701,-0.0032437629997730255,51.49842071533203,-0.17763830721378326,62313,6,0.78759765625,-0.037109375,0.041015625,-0.0,-0.0,-0.0,-11.29150390625,13.48876953125,17.63916015625,-1.7604607343673706,0.009572701528668404,-1.1841583251953125,40.91999816894531,110275.0,-719.709716796875,1586,65355,0.0,0.0,0,1384450,1424292,-98,2.0,True
0.0,0.0,0.0,0.0,0.0,0.0,0.0,0.0,0.0,0.7207250595092773,-1.551270842552185,-0.9346279501914978,-0.711293637752533,0.06620919704437256,0.6950265765190125,0.08362466096878052,51.49842071533203,-0.17764249444007874,62491,7,0.99658203125,0.0068359375,0.01416015625,-0.0,-0.0,-0.0,-26.55029296875,2.38037109375,12.26806640625,-1.6707440614700317,0.008835620246827602,-1.2078030109405518,40.90999984741211,110266.0,-719.0121459960938,1586,65355,0.0,0.0,0,1384450,1424893,-97,-1.75,True
0.0,0.0,0.0,0.0,0.0,0.0,0.0,0.0,0.0,1.967657208442688,-1.550031065940857,-2.001141309738159,-0.7022644281387329,0.0007196528604254127,0.7118054032325745,0.02306024730205536,51.49842071533203,-0.17764100432395935,62570,5,0.990234375,0.0068359375,-0.01513671875,-0.0,-0.0,-0.0,5.31005859375,1.28173828125,-14.09912109375,-1.6857531070709229,0.008950690738856792,-1.2054989337921143,40.95000076293945,110286.0,-720.5657958984375,1588,65356,0.0,0.0,0,1384450,1425495,-98,-2.25,True
0.0,0.0,0.0,0.0,0.0,0.0,0.0,0.0,0.0,0.8361412882804871,-1.534213900566101,-0.8382888436317444,-0.7179474830627441,-0.011182195506989956,0.6961615085601807,0.012692521326243877,51.4984245300293,-0.17763450741767883,61947,7,1.0126953125,0.0283203125,0.0673828125,-0.0,-0.0,-0.0,12.5732421875,4.82177734375,6.28662109375,-1.6790883541107178,0.008908543735742569,-1.2314492464065552,40.93000030517578,110300.0,-721.649169921875,1590,65356,0.0,0.0,0,1384450,1426694,-97,0.5,True
0.0,0.0,0.0,0.0,0.0,0.0,0.0,0.0,0.0,0.8652573823928833,-1.5247524976730347,-0.9560379385948181,-0.7182098031044006,0.016747085377573967,0.6943392753601074,0.047101885080337524,51.4984245300293,-0.1776220053434372,61779,6,0.9970703125,0.0390625,0.06298828125,0.04885197803378105,0.04885197803378105,0.04885197803378105,-0.67138671875,-1.220703125,0.3662109375,-1.6801975965499878,0.008913187310099602,-1.2187548875808716,41.0,110321.0,-723.2821044921875,1588,65356,0.0,0.0,0,1384450,1427899,-102,-3.5,True
0.0,0.0,0.0,0.0,0.0,0.0,0.0,0.0,0.0,1.0907613039016724,-1.539301872253418,-1.167995810508728,-0.712981104850769,0.013891590759158134,0.7001440525054932,0.04049593582749367,51.49843215942383,-0.17761270701885223,60936,7,0.9970703125,0.00634765625,0.00634765625,0.04885197803378105,0.04885197803378105,0.04885197803378105,-0.1220703125,-0.06103515625,-0.244140625,-1.6808143854141235,0.008916542865335941,-1.217289686203003,41.0099983215332,110285.0,-720.486572265625,1586,65355,0.0,0.0,0,1384450,1429098,-98,-2.75,True
0.0,0.0,0.0,0.0,0.0,0.0,0.0,0.0,0.0,1.0969287157058716,-1.5403469800949097,-1.1672577857971191,-0.7129169702529907,0.01170410867780447,0.7003979086875916,0.03782084211707115,51.49843215942383,-0.1776019036769867,60156,7,0.99609375,0.033203125,0.02099609375,-0.0,-0.0,-0.0,-0.1220703125,0.0,-0.18310546875,-1.6806293725967407,0.00891566276550293,-1.2172285318374634,41.029998779296875,110282.0,-720.2540283203125,1588,65356,0.0,0.0,0,1384450,1430302,-99,-2.25,True
0.0,0.0,0.0,0.0,0.0,0.0,0.0,0.0,0.0,1.1041631698608398,-1.5442571640014648,-1.1722767353057861,-0.7128362059593201,0.011070318520069122,0.7006040811538696,0.036853987723588943,51.49843215942383,-0.1775978058576584,59787,7,0.99853515625,0.03173828125,0.0205078125,-0.0,-0.0,-0.0,-0.18310546875,0.0,-0.244140625,-1.6806296110153198,0.008915980346500874,-1.2174112796783447,41.04999923706055,110286.0,-720.5657958984375,1588,65356,0.0,0.0,0,1384450,1430905,-98,-0.5,True
0.0,0.0,0.0,0.0,0.0,0.0,0.0,0.0,0.0,1.0831472873687744,-1.541086196899414,-1.1485745906829834,-0.713099479675293,0.010261115618050098,0.7003397941589355,0.03580576926469803,51.498435974121094,-0.17758910357952118,58372,7,0.9970703125,0.0361328125,0.02001953125,0.04885197803378105,0.04885197803378105,0.04885197803378105,-0.18310546875,-0.1220703125,-0.18310546875,-1.6806913614273071,0.008916379883885384,-1.2173502445220947,41.060001373291016,110297.0,-721.4166259765625,1586,65355,0.0,0.0,0,1384450,1432108,-98,-1.5,True
0.0,0.0,0.0,0.0,0.0,0.0,0.0,0.0,0.0,1.0720977783203125,-1.54458487033844,-1.136776089668274,-0.713310956954956,0.010067746974527836,0.7002158761024475,0.03542041406035423,51.49843215942383,-0.17758360505104065,57623,7,0.998046875,0.03076171875,0.02099609375,0.04885197803378105,0.04885197803378105,0.04885197803378105,-0.1220703125,-0.1220703125,-0.244140625,-1.6821725368499756,0.00892595760524273,-1.2161269187927246,41.029998779296875,110290.0,-720.872314453125,1586,65355,0.0,0.0,0,1384450,1432707,-98,-2.5,True
0.0,0.0,0.0,0.0,0.0,0.0,0.0,0.0,0.0,1.0875623226165771,-1.5450297594070435,-1.1514613628387451,-0.7130225300788879,0.009909536689519882,0.7005203366279602,0.03504146635532379,51.498435974121094,-0.1775819957256317,56531,7,0.99755859375,0.03271484375,0.01953125,-0.0,-0.0,-0.0,-0.1220703125,0.0,-0.3662109375,-1.6813081502914429,0.008919893763959408,-1.217227578163147,41.06999969482422,110301.0,-721.7284545898438,1586,65355,0.0,0.0,0,1384450,1433312,-99,-2.5,True
0.0,0.0,0.0,0.0,0.0,0.0,0.0,0.0,0.0,1.1185742616653442,-1.542593240737915,-1.1818277835845947,-0.7125351428985596,0.009639030322432518,0.7009685039520264,0.03490672633051872,51.498435974121094,-0.17757759988307953,55155,7,0.9990234375,0.0322265625,0.0185546875,0.04885197803378105,0.04885197803378105,0.04885197803378105,-0.18310546875,-0.30517578125,-0.18310546875,-1.681863784790039,0.008923803456127644,-1.216860055923462,41.06999969482422,110311.0,-722.5053100585938,1590,65356,0.0,0.0,0,1384450,1433912,-98,-4.0,True
0.0,0.0,0.0,0.0,0.0,0.0,0.0,0.0,0.0,1.0775877237319946,-1.5452039241790771,-1.1400530338287354,-0.7132226824760437,0.009383020922541618,0.7003592252731323,0.03454885259270668,51.49842071533203,-0.17756690084934235,53599,7,1.00048828125,0.0302734375,0.017578125,0.04885197803378105,0.04885197803378105,0.04885197803378105,-0.30517578125,-0.06103515625,-0.30517578125,-1.6803818941116333,0.008913114666938782,-1.217168927192688,41.06999969482422,110295.0,-721.2633666992188,1586,65355,0.0,0.0,0,1384450,1437527,-99,-2.5,True
0.0,0.0,0.0,0.0,0.0,0.0,0.0,0.0,0.0,1.0694327354431152,-1.5421028137207031,-1.1317397356033325,-0.7133128643035889,0.009316722862422466,0.7002150416374207,0.03453746810555458,51.49843215942383,-0.17754560708999634,50229,7,0.99462890625,0.03125,0.02099609375,0.04885197803378105,0.04885197803378105,0.04885197803378105,-0.18310546875,-0.06103515625,-0.244140625,-1.6800734996795654,0.008911436423659325,-1.2175962924957275,41.08000183105469,110303.0,-721.886962890625,1588,65356,0.0,0.0,0,1384450,1438117,-99,-1.75,True
0.0,0.0,0.0,0.0,0.0,0.0,0.0,0.0,0.0,1.0682990550994873,-1.540972113609314,-1.1307101249694824,-0.7133558392524719,0.009271903894841671,0.700150191783905,0.0346665233373642,51.498443603515625,-0.17753049731254578,45925,7,0.99609375,0.03076171875,0.01513671875,0.04885197803378105,0.04885197803378105,0.04885197803378105,-0.18310546875,-0.1220703125,-0.30517578125,-1.6803817749023438,0.008912955410778522,-1.217230200767517,41.09000015258789,110299.0,-721.5751953125,1586,65355,0.0,0.0,0,1384450,1439327,-99,-2.75,True
0.0,0.0,0.0,0.0,0.0,0.0,0.0,0.0,0.0,1.0547056198120117,-1.5447239875793457,-1.1169625520706177,-0.713481068611145,0.009493852034211159,0.700094997882843,0.03428851440548897,51.49845504760742,-0.1775275021791458,43977,7,0.99951171875,0.03076171875,0.02197265625,0.04885197803378105,0.04885197803378105,0.04885197803378105,-0.06103515625,-0.06103515625,-0.244140625,-1.680320143699646,0.008912715129554272,-1.2164976596832275,41.08000183105469,110302.0,-721.8077392578125,1588,65356,0.0,0.0,0,1384450,1439922,-99,-2.75,True
0.0,0.0,0.0,0.0,0.0,0.0,0.0,0.0,0.0,1.0586678981781006,-1.5419020652770996,-1.120997667312622,-0.7133699655532837,0.009521459229290485,0.7001475095748901,0.034353189170360565,51.49845504760742,-0.17752960324287415,43508,7,0.99853515625,0.03076171875,0.01806640625,-0.0,-0.0,-0.0,-0.18310546875,-0.06103515625,-0.244140625,-1.6792712211608887,0.008906248956918716,-1.2173535823822021,41.09000015258789,110306.0,-722.1195068359375,1586,65355,0.0,0.0,0,1384450,1440528,-98,-2.5,True
0.0,0.0,0.0,0.0,0.0,0.0,0.0,0.0,0.0,1.0699117183685303,-1.5420489311218262,-1.1316853761672974,-0.7132236361503601,0.00928986631333828,0.700307309627533,0.0341971218585968,51.49845886230469,-0.17753060162067413,42489,7,0.99853515625,0.03173828125,0.01953125,0.04885197803378105,0.04885197803378105,0.04885197803378105,-0.06103515625,-0.1220703125,-0.1220703125,-1.6798266172409058,0.008909840136766434,-1.2168033123016357,41.13999938964844,110326.0,-723.6732177734375,1588,65356,0.0,0.0,0,1384450,1441725,-100,-1.0,True
0.0,0.0,0.0,0.0,0.0,0.0,0.0,0.0,0.0,1.0513222217559814,-1.5421839952468872,-1.1130082607269287,-0.7134414315223694,0.009403693489730358,0.7000932097434998,0.034013815224170685,51.49846267700195,-0.1775314062833786,41594,7,1.00048828125,0.03173828125,0.01904296875,-0.0,-0.0,-0.0,-0.06103515625,0.0,-0.244140625,-1.6798874139785767,0.008908810093998909,-1.21833074092865,41.150001525878906,110333.0,-724.217529296875,1585,65355,0.0,0.0,0,1384450,1442328,-98,-2.25,True
0.0,0.0,0.0,0.0,0.0,0.0,0.0,0.0,0.0,1.0808159112930298,-1.5418566465377808,-1.1423274278640747,-0.7130693197250366,0.009167125448584557,0.7004615664482117,0.034143541008234024,51.49846267700195,-0.17753000557422638,40243,7,0.99658203125,0.03515625,0.017578125,0.04885197803378105,0.04885197803378105,0.04885197803378105,0.06103515625,-0.18310546875,-0.244140625,-1.6798877716064453,0.008909286931157112,-1.2166211605072021,41.130001068115234,110344.0,-725.068359375,1585,65355,0.0,0.0,0,1384450,1442924,-99,-1.5,True
0.0,0.0,0.0,0.0,0.0,0.0,0.0,0.0,0.0,1.0772300958633423,-1.5418072938919067,-1.1389734745025635,-0.7131492495536804,0.009197293780744076,0.700378954410553,0.03427218645811081,51.498470306396484,-0.17753170430660248,38177,7,0.9921875,0.03466796875,0.0166015625,0.04885197803378105,0.04885197803378105,0.04885197803378105,-0.06103515625,-0.06103515625,-0.1220703125,-1.679950475692749,0.008911273442208767,-1.2162531614303589,41.20000076293945,110356.0,-726.0037231445312,1591,65356,0.0,0.0,0,1384450,1443530,-98,-1.25,True
0.0,0.0,0.0,0.0,0.0,0.0,0.0,0.0,0.0,1.0761586427688599,-1.5429526567459106,-1.1380997896194458,-0.7131649255752563,0.0092972656711936,0.7003812193870544,0.03429695591330528,51.498470306396484,-0.17753030359745026,37811,7,0.998046875,0.033203125,0.02197265625,-0.0,-0.0,-0.0,-0.18310546875,0.0,-0.1220703125,-1.6809386014938354,0.008918611332774162,-1.2154569625854492,41.189998626708984,110358.0,-726.156982421875,1586,65355,0.0,0.0,0,1384450,1444126,-99,-1.0,True
0.0,0.0,0.0,0.0,0.0,0.0,0.0,0.0,0.0,1.0652097463607788,-1.5422590970993042,-1.1270471811294556,-0.7132650017738342,0.009375699795782566,0.7002673745155334,0.03415339067578316,51.498470306396484,-0.1775197982788086,34035,7,0.9970703125,0.03515625,0.02294921875,0.04885197803378105,0.04885197803378105,0.04885197803378105,-0.18310546875,-0.06103515625,-0.06103515625,-1.6801962852478027,0.008911123499274254,-1.216315746307373,41.22999954223633,110362.0,-726.46875,1586,65355,0.0,0.0,0,1384450,1445328,-99,-0.25,True
0.0,0.0,0.0,0.0,0.0,0.0,0.0,0.0,0.0,1.0701184272766113,-1.544248104095459,-1.1320302486419678,-0.7132479548454285,0.00934808049350977,0.7003231048583984,0.034207575023174286,51.498470306396484,-0.17751829326152802,33248,7,0.99755859375,0.03076171875,0.015625,0.04885197803378105,0.04885197803378105,0.04885197803378105,-0.244140625,-0.18310546875,-0.30517578125,-1.6806902885437012,0.008914791978895664,-1.2175350189208984,41.189998626708984,110349.0,-725.4594116210938,1590,65356,0.0,0.0,0,1384450,1445927,-103,-1.0,True
0.0,0.0,0.0,0.0,0.0,0.0,0.0,0.0,0.0,1.0614368915557861,-1.5420820713043213,-1.1232682466506958,-0.7133259773254395,0.00936698168516159,0.7002043128013611,0.034157074987888336,51.49847412109375,-0.17751869559288025,32343,7,0.99658203125,0.0341796875,0.017578125,0.04885197803378105,0.04885197803378105,0.04885197803378105,-0.244140625,-0.06103515625,-0.18310546875,-1.6801962852478027,0.008911281824111938,-1.217170000076294,41.20000076293945,110355.0,-725.9244384765625,1586,65355,0.0,0.0,0,1384450,1446529,-100,-2.25,True
0.0,0.0,0.0,0.0,0.0,0.0,0.0,0.0,0.0,1.0612529516220093,-1.5419515371322632,-1.1230738162994385,-0.7133418321609497,0.009337563067674637,0.7001872658729553,0.03417990729212761,51.498477935791016,-0.17751920223236084,31614,7,0.9970703125,0.02880859375,0.02197265625,-0.0,-0.0,-0.0,-0.30517578125,0.0,-0.42724609375,-1.680752158164978,0.008915509097278118,-1.2163748741149902,41.209999084472656,110362.0,-726.46875,1586,65355,0.0,0.0,0,1384450,1447128,-99,-1.5,True
0.0,0.0,0.0,0.0,0.0,0.0,0.0,0.0,0.0,1.0411497354507446,-1.5431180000305176,-1.1028947830200195,-0.7137306332588196,0.009239624254405499,0.6998334527015686,0.03419111296534538,51.49848556518555,-0.17750999331474304,29267,7,0.99560546875,0.03466796875,0.0234375,-0.0,-0.0,-0.0,-0.30517578125,0.0,-0.18310546875,-1.6804438829421997,0.008913989178836346,-1.2161307334899902,41.16999816894531,110345.0,-725.1475830078125,1588,65356,0.0,0.0,0,1384450,1447732,-97,-3.0,True
0.0,0.0,0.0,0.0,0.0,0.0,0.0,0.0,0.0,1.045661211013794,-1.5418916940689087,-1.1073273420333862,-0.7135523557662964,0.009355870075523853,0.6999803185462952,0.03404610976576805,51.49848556518555,-0.17750990390777588,28268,6,1.00341796875,0.03125,0.017578125,-0.0,-0.0,-0.0,-0.1220703125,0.0,-0.3662109375,-1.6800116300582886,0.008910720236599445,-1.2168643474578857,41.18000030517578,110349.0,-725.4594116210938,1586,65355,0.0,0.0,0,1384450,1448330,-100,-1.5,True
0.0,0.0,0.0,0.0,0.0,0.0,0.0,0.0,0.0,1.0474933385849,-1.5412936210632324,-1.1090292930603027,-0.7135826349258423,0.00919583160430193,0.6999450922012329,0.0341184139251709,51.49849319458008,-0.1775090992450714,27416,6,0.99658203125,0.03125,0.01806640625,0.04885197803378105,0.04885197803378105,0.04885197803378105,-0.1220703125,-0.06103515625,-0.18310546875,-1.6793937683105469,0.008905776776373386,-1.2175378799438477,41.16999816894531,110347.0,-725.3008422851562,1590,65356,0.0,0.0,0,1384450,1448933,-99,-3.25,True
0.0,0.0,0.0,0.0,0.0,0.0,0.0,0.0,0.0,1.0558879375457764,-1.5422110557556152,-1.1173226833343506,-0.7133875489234924,0.009290971793234348,0.7001528143882751,0.033950913697481155,51.49849319458008,-0.17750920355319977,26701,6,0.99609375,0.03125,0.02197265625,0.04885197803378105,0.04885197803378105,0.04885197803378105,-0.244140625,-0.06103515625,-0.30517578125,-1.6803815364837646,0.008912479504942894,-1.2169255018234253,41.18000030517578,110358.0,-726.156982421875,1585,65355,0.0,0.0,0,1384450,1449533,-99,-0.75,True
0.0,0.0,0.0,0.0,0.0,0.0,0.0,0.0,0.0,1.0541094541549683,-1.541285514831543,-1.1157013177871704,-0.7134734392166138,0.009216241538524628,0.7000507712364197,0.03414221480488777,51.498497009277344,-0.1775074005126953,26236,6,0.99755859375,0.033203125,0.0185546875,-0.0,-0.0,-0.0,-0.1220703125,0.06103515625,-0.244140625,-1.6802586317062378,0.00891263410449028,-1.2159481048583984,41.220001220703125,110368.0,-726.933837890625,1586,65355,0.0,0.0,0,1384450,1450131,-99,-2.0,True
0.0,0.0,0.0,0.0,0.0,0.0,0.0,0.0,0.0,1.0570483207702637,-1.541068196296692,-1.1185615062713623,-0.7134363651275635,0.009166793897747993,0.7000850439071655,0.03414067253470421,51.498497009277344,-0.17750780284404755,25991,6,0.99755859375,0.033203125,0.02001953125,0.04885197803378105,0.04885197803378105,0.04885197803378105,-0.30517578125,-0.18310546875,-0.18310546875,-1.680689811706543,0.008914156816899776,-1.2169864177703857,41.189998626708984,110360.0,-726.3154907226562,1586,65355,0.0,0.0,0,1384450,1450735,-99,-2.5,True
0.0,0.0,0.0,0.0,0.0,0.0,0.0,0.0,0.0,1.0651708841323853,-1.546504020690918,-1.126756191253662,-0.7133597731590271,0.00924515351653099,0.7002605199813843,0.03405081108212471,51.498497009277344,-0.17750859260559082,26089,6,0.99755859375,0.0302734375,0.0205078125,-0.0,-0.0,-0.0,-0.06103515625,0.06103515625,-0.3662109375,-1.679888367652893,0.008910239674150944,-1.2165590524673462,41.279998779296875,110380.0,-727.8692016601562,1586,65355,0.0,0.0,0,1384450,1451335,-99,-2.25,True
0.0,0.0,0.0,0.0,0.0,0.0,0.0,0.0,0.0,1.0791479349136353,-1.546425700187683,-1.140773057937622,-0.7132275700569153,0.009095423854887486,0.700393795967102,0.03423314914107323,51.49848175048828,-0.1775164008140564,27132,7,0.99560546875,0.03271484375,0.01708984375,0.04885197803378105,0.04885197803378105,0.04885197803378105,-0.244140625,-0.06103515625,-0.1220703125,-1.680443525314331,0.008913354948163033,-1.2171690464019775,41.27000045776367,110388.0,-728.4874877929688,1585,65355,0.0,0.0,0,1384450,1452538,-98,-5.25,True
0.0,0.0,0.0,0.0,0.0,0.0,0.0,0.0,0.0,1.079938292503357,-1.5422507524490356,-1.1410167217254639,-0.7131011486053467,0.00900873914361,0.7004477381706238,0.03399049863219261,51.498470306396484,-0.17753219604492188,29766,6,0.99658203125,0.033203125,0.01904296875,0.04885197803378105,0.04885197803378105,0.04885197803378105,-0.18310546875,-0.1220703125,-0.244140625,-1.6797025203704834,0.008907930925488472,-1.21833074092865,41.29999923706055,110422.0,-731.1298217773438,1585,65355,0.0,0.0,0,1384450,1454338,-96,-4.5,True
0.0,0.0,0.0,0.0,0.0,0.0,0.0,0.0,0.0,1.0566486120224,-1.5422340631484985,-1.1177178621292114,-0.7133806943893433,0.009165918454527855,0.7001676559448242,0.033819448202848434,51.49846267700195,-0.17753469944000244,30735,6,1.0009765625,0.0322265625,0.0185546875,-0.0,-0.0,-0.0,-0.18310546875,0.0,-0.1220703125,-1.6797019243240356,0.0089071374386549,-1.2180263996124268,41.29999923706055,110410.0,-730.1944580078125,1588,65356,0.0,0.0,0,1384450,1454940,-97,-2.75,True
0.0,0.0,0.0,0.0,0.0,0.0,0.0,0.0,0.0,1.0574610233306885,-1.541204810142517,-1.1186233758926392,-0.7134867906570435,0.008960207924246788,0.7000488638877869,0.034094348549842834,51.49845886230469,-0.17753730714321136,32117,5,1.0,0.0341796875,0.01904296875,0.04885197803378105,0.04885197803378105,0.04885197803378105,-0.18310546875,-0.06103515625,-0.30517578125,-1.679949402809143,0.008909527212381363,-1.2177199125289917,41.29999923706055,110396.0,-729.111083984375,1585,65355,0.0,0.0,0,1384450,1455540,-98,-0.75,True
0.0,0.0,0.0,0.0,0.0,0.0,0.0,0.0,0.0,1.0492486953735352,-1.5412471294403076,-1.1107248067855835,-0.7135311961174011,0.009214245714247227,0.6999944448471069,0.034062083810567856,51.49845504760742,-0.1775365024805069,33383,6,0.99560546875,0.03369140625,0.01904296875,0.04885197803378105,0.04885197803378105,0.04885197803378105,-0.18310546875,-0.06103515625,-0.244140625,-1.680628776550293,0.008914710953831673,-1.2168632745742798,41.290000915527344,110395.0,-729.0317993164062,1586,65355,0.0,0.0,0,1384450,1456139,-96,-2.75,True
0.0,0.0,0.0,0.0,0.0,0.0,0.0,0.0,0.0,1.0822157859802246,-1.5441584587097168,-1.1436481475830078,-0.7131158709526062,0.00908602960407734,0.7004646062850952,0.03413786739110947,51.498451232910156,-0.17753849923610687,34209,6,0.994140625,0.03076171875,0.01953125,0.04885197803378105,0.04885197803378105,0.04885197803378105,-0.244140625,-0.244140625,-0.244140625,-1.6800109148025513,0.008909608237445354,-1.2164994478225708,41.2599983215332,110404.0,-729.7293701171875,1585,65355,0.0,0.0,0,1384450,1456742,-98,-3.0,True
0.0,0.0,0.0,0.0,0.0,0.0,0.0,0.0,0.0,1.079224705696106,-1.5418834686279297,-1.140843391418457,-0.7131156325340271,0.00916372425854206,0.7004157900810242,0.034219276160001755,51.498443603515625,-0.17754009366035461,36194,6,0.994140625,0.02880859375,0.0185546875,-0.0,-0.0,-0.0,-0.30517578125,0.0,-0.244140625,-1.6803194284439087,0.008911604061722755,-1.2170482873916626,41.29999923706055,110413.0,-730.4322509765625,1586,65355,0.0,0.0,0,1384450,1457341,-99,-1.75,True
0.0,0.0,0.0,0.0,0.0,0.0,0.0,0.0,0.0,1.0843353271484375,-1.5443223714828491,-1.1460916996002197,-0.7130714654922485,0.009213898330926895,0.7005038857460022,0.03423842415213585,51.498443603515625,-0.17754389345645905,37766,6,0.99951171875,0.02978515625,0.0205078125,0.04885197803378105,0.04885197803378105,0.04885197803378105,-0.06103515625,-0.06103515625,-0.244140625,-1.6802576780319214,0.00891104619950056,-1.2168654203414917,41.34000015258789,110436.0,-732.2184448242188,1586,65355,0.0,0.0,0,1384450,1457944,-99,-4.0,True
0.0,0.0,0.0,0.0,0.0,0.0,0.0,0.0,0.0,1.0678379535675049,-1.5420820713043213,-1.1296534538269043,-0.7131835222244263,0.00943348091095686,0.7003419399261475,0.03408697620034218,51.498435974121094,-0.17754919826984406,42479,6,0.9970703125,0.02978515625,0.01708984375,0.04885197803378105,0.04885197803378105,0.04885197803378105,0.0,-0.06103515625,-0.244140625,-1.6803816556930542,0.008912797085940838,-1.2157654762268066,41.38999938964844,110468.0,-734.7022094726562,1586,65355,0.0,0.0,0,1384450,1459762,-97,-2.75,True
0.0,0.0,0.0,0.0,0.0,0.0,0.0,0.0,0.0,1.0818077325820923,-1.5467209815979004,-1.1434768438339233,-0.713127851486206,0.009221402928233147,0.7004919052124023,0.03414078801870346,51.498443603515625,-0.17755070328712463,44122,6,0.99658203125,0.03662109375,0.02099609375,-0.0,-0.0,-0.0,-0.18310546875,0.0,-0.1220703125,-1.6803197860717773,0.008912079967558384,-1.2161321640014648,41.43000030517578,110469.0,-734.7762451171875,1590,65356,0.0,0.0,0,1384450,1461558,-98,-2.5,True
0.0,0.0,0.0,0.0,0.0,0.0,0.0,0.0,0.0,1.0668838024139404,-1.5422674417495728,-1.128443956375122,-0.7132609486579895,0.009247742593288422,0.7002785205841064,0.0340857058763504,51.498443603515625,-0.17755180597305298,45832,6,0.99609375,0.03173828125,0.021484375,-0.0,-0.0,-0.0,-0.18310546875,0.06103515625,-0.244140625,-1.680195689201355,0.008910330012440681,-1.2175372838974,41.41999816894531,110477.0,-735.3997802734375,1586,65355,0.0,0.0,0,1384450,1462162,-96,-2.25,True
0.0,0.0,0.0,0.0,0.0,0.0,0.0,0.0,0.0,1.0652263164520264,-1.54222571849823,-1.1266981363296509,-0.7132037878036499,0.009365154430270195,0.7003304958343506,0.03391220420598984,51.498451232910156,-0.1775549054145813,47140,6,1.00244140625,0.029296875,0.02099609375,-0.0,-0.0,-0.0,-0.42724609375,0.0,-0.30517578125,-1.6802576780319214,0.00891104619950056,-1.2167433500289917,41.400001525878906,110465.0,-734.4697265625,1585,65355,0.0,0.0,0,1384450,1462763,-99,-2.0,True
0.0,0.0,0.0,0.0,0.0,0.0,0.0,0.0,0.0,1.0769881010055542,-1.5443087816238403,-1.1385314464569092,-0.713168740272522,0.009179472923278809,0.7004112601280212,0.034119125455617905,51.498451232910156,-0.1775527000427246,48867,6,0.99609375,0.0322265625,0.0185546875,0.04885197803378105,0.04885197803378105,0.04885197803378105,-0.18310546875,-0.06103515625,-0.244140625,-1.6808750629425049,0.008915512822568417,-1.2168638706207275,41.45000076293945,110476.0,-735.320556640625,1588,65356,0.0,0.0,0,1384450,1463364,-100,-3.0,True
0.0,0.0,0.0,0.0,0.0,0.0,0.0,0.0,0.0,1.0729857683181763,-1.5421881675720215,-1.1346062421798706,-0.7131608128547668,0.009269938804209232,0.7003738880157471,0.03411029279232025,51.498451232910156,-0.17754949629306793,50116,6,0.99658203125,0.03271484375,0.01708984375,0.04885197803378105,0.04885197803378105,0.04885197803378105,-0.06103515625,-0.18310546875,-0.18310546875,-1.6809983253479004,0.008915993385016918,-1.215887427330017,41.41999816894531,110475.0,-735.2412719726562,1586,65355,0.0,0.0,0,1384450,1463967,-97,-1.75,True
0.0,0.0,0.0,0.0,0.0,0.0,0.0,0.0,0.0,1.076404333114624,-1.5469248294830322,-1.1381806135177612,-0.7131737470626831,0.009331478737294674,0.7004454731941223,0.03410324454307556,51.49845504760742,-0.17755140364170074,50562,6,0.9951171875,0.033203125,0.02001953125,0.04885197803378105,0.04885197803378105,0.04885197803378105,-0.244140625,-0.18310546875,-0.30517578125,-1.679887294769287,0.008908651769161224,-1.2167439460754395,41.43000030517578,110478.0,-735.4738159179688,1588,65356,0.0,0.0,0,1384450,1464569,-98,-2.0,True
0.0,0.0,0.0,0.0,0.0,0.0,0.0,0.0,0.0,1.0726112127304077,-1.544248104095459,-1.1343963146209717,-0.7132217288017273,0.009284068830311298,0.7003522515296936,0.034183379262685776,51.49845886230469,-0.17755219340324402,50883,6,0.99658203125,0.03857421875,0.0166015625,0.04885197803378105,0.04885197803378105,0.04885197803378105,-0.1220703125,-0.06103515625,-0.18310546875,-1.6799484491348267,0.008908098563551903,-1.2180876731872559,41.45000076293945,110480.0,-735.63232421875,1586,65355,0.0,0.0,0,1384450,1465169,-97,-2.75,True
0.0,0.0,0.0,0.0,0.0,0.0,0.0,0.0,0.0,1.0739567279815674,-1.5423134565353394,-1.1357460021972656,-0.7131498456001282,0.009319573640823364,0.7003839015960693,0.034178029745817184,51.49856185913086,-0.17753879725933075,35571,7,0.99658203125,0.03125,0.021484375,0.04885197803378105,0.04885197803378105,0.04885197803378105,-0.244140625,-0.06103515625,-0.3662109375,-1.6808749437332153,0.008915195241570473,-1.2161928415298462,41.4900016784668,110513.0,-738.1900634765625,1585,65355,0.0,0.0,0,1384450,1469971,-98,-3.25,True
0.0,0.0,0.0,0.0,0.0,0.0,0.0,0.0,0.0,1.066872239112854,-1.5422674417495728,-1.128657341003418,-0.7131898403167725,0.009444918483495712,0.7003393769264221,0.03405171260237694,51.498573303222656,-0.17753370106220245,33942,7,0.9931640625,0.03125,0.01904296875,0.04885197803378105,0.04885197803378105,0.04885197803378105,-0.3662109375,-0.18310546875,-0.06103515625,-1.680566430091858,0.008913358673453331,-1.2162541151046753,41.4900016784668,110516.0,-738.422607421875,1588,65356,0.0,0.0,0,1384450,1470573,-97,-2.75,True
0.0,0.0,0.0,0.0,0.0,0.0,0.0,0.0,0.0,1.0579026937484741,-1.5420054197311401,-1.119781255722046,-0.7133962512016296,0.009356154128909111,0.7001338005065918,0.034198302775621414,51.49858474731445,-0.17753709852695465,31516,7,0.99853515625,0.03125,0.01953125,0.04885197803378105,0.04885197803378105,0.04885197803378105,-0.18310546875,-0.1220703125,-0.18310546875,-1.6798871755599976,0.00890849344432354,-1.2172324657440186,41.52000045776367,110509.0,-737.8836059570312,1588,65356,0.0,0.0,0,1384450,1471181,-97,-2.75,True
0.0,0.0,0.0,0.0,0.0,0.0,0.0,0.0,0.0,1.0655672550201416,-1.5467382669448853,-1.1273126602172852,-0.7133243083953857,0.009353340603411198,0.7002940773963928,0.034055404365062714,51.498600006103516,-0.1775311976671219,28979,7,0.99560546875,0.03271484375,0.017578125,0.04885197803378105,0.04885197803378105,0.04885197803378105,-0.1220703125,-0.1220703125,-0.30517578125,-1.6805661916732788,0.008913041092455387,-1.217414140701294,41.5,110519.0,-738.6551513671875,1585,65355,0.0,0.0,0,1384450,1471775,-96,-3.0,True
0.0,0.0,0.0,0.0,0.0,0.0,0.0,0.0,0.0,1.0793712139129639,-1.544270634651184,-1.140891432762146,-0.7131409049034119,0.009153653867542744,0.7004389762878418,0.03413081914186478,51.49860382080078,-0.17752879858016968,28109,7,0.99462890625,0.0302734375,0.01904296875,-0.0,-0.0,-0.0,-0.244140625,0.0,-0.18310546875,-1.6796406507492065,0.008907373063266277,-1.217537522315979,41.5099983215332,110519.0,-738.6551513671875,1585,65355,0.0,0.0,0,1384450,1472378,-98,-2.5,True
0.0,0.0,0.0,0.0,0.0,0.0,0.0,0.0,0.0,1.0719521045684814,-1.549411654472351,-1.1335701942443848,-0.7132606506347656,0.00930990930646658,0.7004021406173706,0.033984605222940445,51.49860382080078,-0.1775292009115219,27842,7,0.99462890625,0.0302734375,0.0166015625,-0.0,-0.0,-0.0,-0.244140625,0.06103515625,-0.18310546875,-1.6799484491348267,0.008908098563551903,-1.2173552513122559,41.52000045776367,110517.0,-738.5018920898438,1585,65355,0.0,0.0,0,1384450,1472980,-97,-2.5,True
0.0,0.0,0.0,0.0,0.0,0.0,0.0,0.0,0.0,1.063106656074524,-1.5424245595932007,-1.1245588064193726,-0.7132591605186462,0.009326052851974964,0.7002816796302795,0.033931419253349304,51.49860763549805,-0.17753149569034576,27212,7,0.994140625,0.0302734375,0.0185546875,-0.0,-0.0,-0.0,-0.244140625,0.0,-0.244140625,-1.6804430484771729,0.008912560530006886,-1.2171698808670044,41.54999923706055,110537.0,-740.0555419921875,1588,65356,0.0,0.0,0,1384450,1473588,-98,-3.0,True
0.0,0.0,0.0,0.0,0.0,0.0,0.0,0.0,0.0,1.055689811706543,-1.5425150394439697,-1.1168802976608276,-0.7133585810661316,0.009277121163904667,0.700190007686615,0.03379249945282936,51.49861145019531,-0.17752990126609802,26803,7,0.998046875,0.02880859375,0.021484375,-0.0,-0.0,-0.0,-0.3662109375,0.0,-0.244140625,-1.6802568435668945,0.008909775875508785,-1.2182706594467163,41.560001373291016,110536.0,-739.976318359375,1588,65356,0.0,0.0,0,1384450,1474179,-97,-2.0,True
0.0,0.0,0.0,0.0,0.0,0.0,0.0,0.0,0.0,1.0808637142181396,-1.541770339012146,-1.1420714855194092,-0.7130634188652039,0.009077174589037895,0.7004714608192444,0.03402155265212059,51.49861145019531,-0.17753329873085022,26253,7,0.99755859375,0.03369140625,0.02001953125,0.04885197803378105,0.04885197803378105,0.04885197803378105,-0.244140625,-0.18310546875,-0.42724609375,-1.6799477338790894,0.008906987495720387,-1.218027949333191,41.540000915527344,110540.0,-740.2880859375,1586,65355,0.0,0.0,0,1384450,1474783,-96,-5.25,True
0.0,0.0,0.0,0.0,0.0,0.0,0.0,0.0,0.0,1.0732710361480713,-1.5442211627960205,-1.13453209400177,-0.7132280468940735,0.009086866863071918,0.70035719871521,0.0340125747025013,51.49861526489258,-0.17753450572490692,25694,7,0.9912109375,0.03076171875,0.017578125,0.04885197803378105,0.04885197803378105,0.04885197803378105,0.0,-0.06103515625,-0.30517578125,-1.680071234703064,0.008907943964004517,-1.2175391912460327,41.56999969482422,110549.0,-740.9856567382812,1586,65355,0.0,0.0,0,1384450,1475383,-95,-2.5,True
0.0,0.0,0.0,0.0,0.0,0.0,0.0,0.0,0.0,1.0641329288482666,-1.5420156717300415,-1.1252037286758423,-0.7132474184036255,0.009184435941278934,0.7002933025360107,0.03381045162677765,51.498619079589844,-0.1775529980659485,25944,7,0.99365234375,0.03173828125,0.0185546875,0.04885197803378105,0.04885197803378105,0.04885197803378105,-0.18310546875,-0.18310546875,-0.18310546875,-1.6802570819854736,0.008910252712666988,-1.218880534172058,41.560001373291016,110548.0,-740.9063720703125,1586,65355,0.0,0.0,0,1384450,1475986,-98,-2.0,True
0.0,0.0,0.0,0.0,0.0,0.0,0.0,0.0,0.0,1.0646533966064453,-1.5424771308898926,-1.125922679901123,-0.713266909122467,0.00921284407377243,0.7002807259559631,0.03391427919268608,51.498619079589844,-0.17755469679832458,26159,6,0.99609375,0.03076171875,0.0205078125,0.04885197803378105,0.04885197803378105,0.04885197803378105,-0.06103515625,-0.06103515625,-0.244140625,-1.6806899309158325,0.008914316073060036,-1.2166200876235962,41.59000015258789,110553.0,-741.2974853515625,1585,65355,0.0,0.0,0,1384450,1476584,-98,-2.5,True
0.0,0.0,0.0,0.0,0.0,0.0,0.0,0.0,0.0,1.0693968534469604,-1.543066382408142,-1.1305311918258667,-0.7131291627883911,0.009298110380768776,0.7004258632659912,0.03373533859848976,51.498619079589844,-0.1775519996881485,26296,7,0.99462890625,0.03125,0.017578125,0.04885197803378105,0.04885197803378105,0.04885197803378105,-0.06103515625,-0.06103515625,-0.30517578125,-1.679825782775879,0.008908569812774658,-1.2160723209381104,41.59000015258789,110548.0,-740.9063720703125,1586,65355,0.0,0.0,0,1384450,1477189,-96,-3.0,True
0.0,0.0,0.0,0.0,0.0,0.0,0.0,0.0,0.0,1.0766539573669434,-1.544507622718811,-1.1378902196884155,-0.7131551504135132,0.009121591225266457,0.700433075428009,0.03396090492606163,51.49861526489258,-0.17755480110645294,26452,7,0.99755859375,0.0322265625,0.017578125,0.04885197803378105,0.04885197803378105,0.04885197803378105,-0.244140625,-0.1220703125,-0.1220703125,-1.6803797483444214,0.008909939788281918,-1.2177828550338745,41.540000915527344,110549.0,-740.9856567382812,1585,65355,0.0,0.0,0,1384450,1477789,-97,-2.5,True
0.0,0.0,0.0,0.0,0.0,0.0,0.0,0.0,0.0,1.0486323833465576,-1.5453135967254639,-1.110219955444336,-0.7135944366455078,0.00926916766911745,0.7000085711479187,0.034031450748443604,51.498619079589844,-0.17754119634628296,27276,7,0.998046875,0.02978515625,0.01904296875,-0.0,-0.0,-0.0,-0.1220703125,0.0,-0.244140625,-1.6803797483444214,0.008909939788281918,-1.2180880308151245,41.619998931884766,110555.0,-741.4507446289062,1585,65355,0.0,0.0,0,1384450,1479589,-103,-1.75,True
0.0,0.0,0.0,0.0,0.0,0.0,0.0,0.0,0.0,1.0550559759140015,-1.544223427772522,-1.1165488958358765,-0.713445246219635,0.009288830682635307,0.7001349925994873,0.03396584838628769,51.49861526489258,-0.17753730714321136,29098,6,0.99853515625,0.029296875,0.01904296875,-0.0,-0.0,-0.0,-0.244140625,0.0,-0.42724609375,-1.6806889772415161,0.008912887424230576,-1.2182695865631104,41.59000015258789,110555.0,-741.4507446289062,1586,65355,0.0,0.0,0,1384450,1480187,-97,-1.75,True
0.0,0.0,0.0,0.0,0.0,0.0,0.0,0.0,0.0,1.0447553396224976,-1.5459364652633667,-1.1060099601745605,-0.7135781645774841,0.009310574270784855,0.7000371813774109,0.03375260531902313,51.49861145019531,-0.17753399908542633,30725,6,0.9951171875,0.03271484375,0.0185546875,-0.0,-0.0,-0.0,-0.06103515625,0.0,-0.18310546875,-1.6798248291015625,0.008906982839107513,-1.2180882692337036,41.61000061035156,110553.0,-741.2974853515625,1585,65355,0.0,0.0,0,1384450,1480790,-98,-2.5,True
0.0,0.0,0.0,0.0,0.0,0.0,0.0,0.0,0.0,1.04188871383667,-1.540884256362915,-1.1030994653701782,-0.7137414813041687,0.008968472480773926,0.6997917294502258,0.034113653004169464,51.49861145019531,-0.17753149569034576,31117,7,0.99755859375,0.03271484375,0.02001953125,0.04885197803378105,0.04885197803378105,0.04885197803378105,-0.3662109375,-0.1220703125,-0.244140625,-1.6797630786895752,0.008906583301723003,-1.2187597751617432,41.61000061035156,110544.0,-740.5946044921875,1585,65355,0.0,0.0,0,1384450,1481390,-97,-4.25,True
0.0,0.0,0.0,0.0,0.0,0.0,0.0,0.0,0.0,1.0412282943725586,-1.5449743270874023,-1.1028562784194946,-0.7137389183044434,0.009233578108251095,0.6998617053031921,0.034091901034116745,51.49861526489258,-0.17752869427204132,31477,7,0.9921875,0.03125,0.0234375,-0.0,-0.0,-0.0,-0.30517578125,0.06103515625,-0.1220703125,-1.6803185939788818,0.00891033373773098,-1.2187587022781372,41.560001373291016,110525.0,-739.12548828125,1586,65355,0.0,0.0,0,1384450,1481993,-97,-3.0,True
0.0,0.0,0.0,0.0,0.0,0.0,0.0,0.0,0.0,1.0450519323349,-1.5412774085998535,-1.1066532135009766,-0.7135586738586426,0.009323772974312305,0.6999631524085999,0.03404055908322334,51.49861526489258,-0.17753079533576965,31892,6,0.99853515625,0.0341796875,0.01904296875,0.04885197803378105,0.04885197803378105,0.04885197803378105,-0.06103515625,-0.06103515625,-0.18310546875,-1.6797024011611938,0.008907771669328213,-1.2169880867004395,41.54999923706055,110529.0,-739.4320068359375,1588,65356,0.0,0.0,0,1384450,1482591,-96,-2.25,True
0.0,0.0,0.0,0.0,0.0,0.0,0.0,0.0,0.0,1.0560888051986694,-1.5458766222000122,-1.1178110837936401,-0.7134445309638977,0.00937718991190195,0.7001606225967407,0.03401894494891167,51.498619079589844,-0.17753319442272186,31978,7,1.0009765625,0.033203125,0.017578125,-0.0,-0.0,-0.0,-0.244140625,0.0,-0.18310546875,-1.6797009706497192,0.00890570878982544,-1.2177839279174805,41.59000015258789,110542.0,-740.4413452148438,1586,65355,0.0,0.0,0,1384450,1483194,-98,-3.5,True
0.0,0.0,0.0,0.0,0.0,0.0,0.0,0.0,0.0,1.0558468103408813,-1.5440200567245483,-1.1173806190490723,-0.7134568095207214,0.009254859760403633,0.7001206278800964,0.03402965888381004,51.498619079589844,-0.17753590643405914,32277,6,0.99755859375,0.03466796875,0.02001953125,0.04885197803378105,0.04885197803378105,0.04885197803378105,-0.3662109375,-0.06103515625,-0.18310546875,-1.6805652379989624,0.008911612443625927,-1.2176599502563477,41.58000183105469,110553.0,-741.2974853515625,1585,65355,0.0,0.0,0,1384450,1483795,-99,-3.25,True
0.0,0.0,0.0,0.0,0.0,0.0,0.0,0.0,0.0,1.048438310623169,-1.5459293127059937,-1.1100696325302124,-0.7135908603668213,0.009309537708759308,0.7000212073326111,0.03401515632867813,51.498619079589844,-0.1775338053703308,33995,5,0.99755859375,0.03515625,0.01953125,-0.0,-0.0,-0.0,-0.18310546875,0.06103515625,-0.18310546875,-1.679886817932129,0.008907858282327652,-1.2171721458435059,41.61000061035156,110540.0,-740.2880859375,1585,65355,0.0,0.0,0,1384450,1484396,-99,-2.25,True
0.0,0.0,0.0,0.0,0.0,0.0,0.0,0.0,0.0,1.057529091835022,-1.5418463945388794,-1.1190826892852783,-0.713405430316925,0.00924232043325901,0.7001284956932068,0.034085340797901154,51.49861526489258,-0.17752739787101746,35448,4,0.99560546875,0.033203125,0.0185546875,0.04885197803378105,0.04885197803378105,0.04885197803378105,-0.06103515625,-0.18310546875,-0.244140625,-1.6810603141784668,0.008916710503399372,-1.2152765989303589,41.59000015258789,110541.0,-740.362060546875,1586,65355,0.0,0.0,0,1384450,1484996,-100,-4.0,True
0.0,0.0,0.0,0.0,0.0,0.0,0.0,0.0,0.0,1.052972435951233,-1.5415370464324951,-1.1145391464233398,-0.7134318947792053,0.009317982010543346,0.7000933885574341,0.03402356430888176,51.49860763549805,-0.17752470076084137,36356,6,0.9921875,0.03076171875,0.0185546875,-0.0,-0.0,-0.0,-0.30517578125,0.0,-0.244140625,-1.6801955699920654,0.008910170756280422,-1.216866135597229,41.58000183105469,110544.0,-740.5946044921875,1586,65355,0.0,0.0,0,1384450,1485595,-98,-4.5,True
0.0,0.0,0.0,0.0,0.0,0.0,0.0,0.0,0.0,1.0210845470428467,-1.5414150953292847,-1.0826168060302734,-0.7138935923576355,0.00939996913075447,0.6996358036994934,0.03390232101082802,51.49861145019531,-0.17752200365066528,37065,5,0.99560546875,0.03173828125,0.01904296875,0.04885197803378105,0.04885197803378105,0.04885197803378105,-0.244140625,-0.06103515625,-0.1220703125,-1.6793915033340454,0.008902284316718578,-1.2187014818191528,41.560001373291016,110526.0,-739.199462890625,1586,65355,0.0,0.0,0,1384450,1486197,-98,-4.0,True
0.0,0.0,0.0,0.0,0.0,0.0,0.0,0.0,0.0,1.0392333269119263,-1.544951319694519,-1.100755214691162,-0.7137641310691833,0.00921132043004036,0.6998382806777954,0.03403882682323456,51.49860382080078,-0.17752160131931305,38141,4,0.9970703125,0.03466796875,0.02099609375,0.04885197803378105,0.04885197803378105,0.04885197803378105,-0.30517578125,-0.06103515625,-0.30517578125,-1.6804414987564087,0.008910338394343853,-1.218576192855835,41.54999923706055,110542.0,-740.4413452148438,1586,65355,0.0,0.0,0,1384450,1486800,-99,-2.25,True
0.0,0.0,0.0,0.0,0.0,0.0,0.0,0.0,0.0,1.0429452657699585,-1.545287847518921,-1.1045398712158203,-0.7136401534080505,0.009348707273602486,0.699960470199585,0.03395658731460571,51.498600006103516,-0.17752020061016083,39781,7,0.99853515625,0.0283203125,0.02197265625,0.04885197803378105,0.04885197803378105,0.04885197803378105,-0.1220703125,-0.18310546875,-0.30517578125,-1.680195927619934,0.00891064666211605,-1.2169876098632812,41.599998474121094,110540.0,-740.2880859375,1586,65355,0.0,0.0,0,1384450,1487412,-99,-3.75,True
0.0,0.0,0.0,0.0,0.0,0.0,0.0,0.0,0.0,1.0646787881851196,-1.5425783395767212,-1.1264177560806274,-0.7132395505905151,0.00941295176744461,0.7002983689308167,0.03404507786035538,51.498600006103516,-0.1775214970111847,41679,7,0.99609375,0.02880859375,0.01708984375,-0.0,-0.0,-0.0,-0.1220703125,0.0,-0.1220703125,-1.680195927619934,0.00891064666211605,-1.2164993286132812,41.59000015258789,110534.0,-739.8230590820312,1588,65356,0.0,0.0,0,1384450,1488001,-100,-2.75,True
0.0,0.0,0.0,0.0,0.0,0.0,0.0,0.0,0.0,1.0681233406066895,-1.541657567024231,-1.1299049854278564,-0.7132816910743713,0.009228513576090336,0.7002444267272949,0.034265484660863876,51.49859619140625,-0.17752060294151306,41731,6,0.998046875,0.0302734375,0.0185546875,0.04885197803378105,0.04885197803378105,0.04885197803378105,-0.3662109375,-0.1220703125,-0.18310546875,-1.6811208724975586,0.008915362879633904,-1.2169263362884521,41.56999969482422,110540.0,-740.2880859375,1586,65355,0.0,0.0,0,1384450,1488600,-99,-1.75,True
0.0,0.0,0.0,0.0,0.0,0.0,0.0,0.0,0.0,1.0553382635116577,-1.5416513681411743,-1.1172410249710083,-0.7134214639663696,0.009381371550261974,0.7001007199287415,0.03419426083564758,51.498592376708984,-0.17752209305763245,42078,7,0.9970703125,0.03271484375,0.01708984375,0.04885197803378105,0.04885197803378105,0.04885197803378105,-0.18310546875,-0.06103515625,-0.244140625,-1.680750846862793,0.00891344528645277,-1.2171707153320312,41.61000061035156,110546.0,-740.753173828125,1586,65355,0.0,0.0,0,1384450,1489199,-98,-3.0,True
0.0,0.0,0.0,0.0,0.0,0.0,0.0,0.0,0.0,1.0440442562103271,-1.5410300493240356,-1.1057815551757812,-0.7135987281799316,0.009320552460849285,0.6999176144599915,0.03413992002606392,51.49858856201172,-0.17752349376678467,43093,7,0.99755859375,0.0341796875,0.0224609375,-0.0,-0.0,-0.0,-0.42724609375,0.1220703125,-0.18310546875,-1.6806894540786743,0.008913522586226463,-1.216193675994873,41.58000183105469,110529.0,-739.4320068359375,1586,65355,0.0,0.0,0,1384450,1489802,-99,-1.75,True
0.0,0.0,0.0,0.0,0.0,0.0,0.0,0.0,0.0,1.0690600872039795,-1.5449858903884888,-1.1307406425476074,-0.7132272124290466,0.009361024014651775,0.7003588080406189,0.03402602672576904,51.498592376708984,-0.17752200365066528,43733,7,0.99755859375,0.03271484375,0.01806640625,0.04885197803378105,0.04885197803378105,0.04885197803378105,-0.18310546875,-0.18310546875,-0.244140625,-1.6803804636001587,0.008910891599953175,-1.2168052196502686,41.65999984741211,110574.0,-742.9251098632812,1585,65355,0.0,0.0,0,1384450,1491609,-99,-1.5,True
0.0,0.0,0.0,0.0,0.0,0.0,0.0,0.0,0.0,1.0559885501861572,-1.544414758682251,-1.1177818775177002,-0.7134092450141907,0.009425961412489414,0.7001663446426392,0.03403960168361664,51.49858474731445,-0.17752259969711304,44686,6,0.998046875,0.03173828125,0.021484375,-0.0,-0.0,-0.0,-0.244140625,0.06103515625,-0.1220703125,-1.680690050125122,0.00891447439789772,-1.215521216392517,41.650001525878906,110571.0,-742.692626953125,1586,65355,0.0,0.0,0,1384450,1492202,-99,-1.25,True
0.0,0.0,0.0,0.0,0.0,0.0,0.0,0.0,0.0,1.0532386302947998,-1.5430556535720825,-1.114798903465271,-0.7133873105049133,0.009427816607058048,0.7001639604568481,0.03389357030391693,51.49858093261719,-0.17752030491828918,45506,7,0.9970703125,0.03515625,0.02001953125,-0.0,-0.0,-0.0,-0.1220703125,0.06103515625,-0.30517578125,-1.6819859743118286,0.008922696113586426,-1.2160685062408447,41.68000030517578,110576.0,-743.078369140625,1586,65355,0.0,0.0,0,1384450,1492808,-99,-1.25,True
0.0,0.0,0.0,0.0,0.0,0.0,0.0,0.0,0.0,1.0367292165756226,-1.540735125541687,-1.098003625869751,-0.7137317061424255,0.009142344817519188,0.699791431427002,0.03399115055799484,51.49856948852539,-0.17751209437847137,49219,5,0.99267578125,0.0322265625,0.0205078125,0.04885197803378105,0.04885197803378105,0.04885197803378105,-0.30517578125,-0.1220703125,-0.244140625,-1.6803195476531982,0.00891176238656044,-1.2165597677230835,41.650001525878906,110563.0,-742.0690307617188,1585,65355,0.0,0.0,0,1384450,1495213,-100,-6.0,True
0.0,0.0,0.0,0.0,0.0,0.0,0.0,0.0,0.0,1.054450273513794,-1.550480842590332,-1.1163928508758545,-0.7134780883789062,0.009538345970213413,0.7001937031745911,0.03396447002887726,51.49857711791992,-0.17750389873981476,48220,7,0.994140625,0.02685546875,0.01904296875,-0.0,-0.0,-0.0,-0.18310546875,0.06103515625,-0.18310546875,-1.6809364557266235,0.008915277197957039,-1.2156437635421753,41.65999984741211,110574.0,-742.9251098632812,1585,65355,0.0,0.0,0,1384450,1497008,-99,-2.75,True
0.0,0.0,0.0,0.0,0.0,0.0,0.0,0.0,0.0,1.048283338546753,-1.5418381690979004,-1.1098558902740479,-0.7135051488876343,0.009332782588899136,0.7000271677970886,0.03400682285428047,51.49858856201172,-0.17749300599098206,45530,7,0.99560546875,0.03271484375,0.0146484375,0.04885197803378105,0.04885197803378105,0.04885197803378105,-0.18310546875,-0.1220703125,-0.18310546875,-1.6810600757598877,0.008916392922401428,-1.2150938510894775,41.66999816894531,110572.0,-742.7666015625,1588,65356,0.0,0.0,0,1384450,1497612,-100,-2.25,True
0.0,0.0,0.0,0.0,0.0,0.0,0.0,0.0,0.0,1.047875165939331,-1.5456693172454834,-1.1092032194137573,-0.7135581970214844,0.009276925586163998,0.7000525593757629,0.03384075313806534,51.49860382080078,-0.17748600244522095,41368,6,0.9990234375,0.033203125,0.01904296875,-0.0,-0.0,-0.0,0.0,0.06103515625,-0.3662109375,-1.6833443641662598,0.008932428434491158,-1.2131354808807373,41.63999938964844,110565.0,-742.2275390625,1586,65355,0.0,0.0,0,1384450,1498819,-99,-3.5,True
0.0,0.0,0.0,0.0,0.0,0.0,0.0,0.0,0.0,1.0358271598815918,-1.5411444902420044,-1.0974247455596924,-0.7137506604194641,0.009250406175851822,0.6997748017311096,0.03410309925675392,51.49861526489258,-0.17748770117759705,39347,6,0.99755859375,0.0361328125,0.0185546875,0.04885197803378105,0.04885197803378105,0.04885197803378105,-0.1220703125,-0.06103515625,-0.244140625,-1.6808130741119385,0.008914637379348278,-1.2166813611984253,41.66999816894531,110569.0,-742.5340576171875,1586,65355,0.0,0.0,0,1384450,1500015,-100,-1.5,True
0.0,0.0,0.0,0.0,0.0,0.0,0.0,0.0,0.0,1.0666968822479248,-1.542142391204834,-1.1285035610198975,-0.713254988193512,0.009338190779089928,0.7002764344215393,0.03417019546031952,51.498626708984375,-0.1774778962135315,36313,6,0.9970703125,0.03076171875,0.0185546875,0.04885197803378105,0.04885197803378105,0.04885197803378105,-0.30517578125,-0.244140625,-0.244140625,-1.6808744668960571,0.00891456101089716,-1.2164376974105835,41.70000076293945,110587.0,-743.9345092773438,1585,65355,0.0,0.0,0,1384450,1501213,-98,-3.0,True
0.0,0.0,0.0,0.0,0.0,0.0,0.0,0.0,0.0,1.0433717966079712,-1.5462331771850586,-1.105092167854309,-0.7136355042457581,0.009407746605575085,0.6999785304069519,0.033975083380937576,51.498634338378906,-0.17747390270233154,34904,5,0.9990234375,0.03271484375,0.0205078125,0.04885197803378105,0.04885197803378105,0.04885197803378105,-0.06103515625,-0.06103515625,-0.18310546875,-1.6808741092681885,0.008914084173738956,-1.2163161039352417,41.689998626708984,110583.0,-743.6226806640625,1585,65355,0.0,0.0,0,1384450,1501816,-99,-3.5,True
0.0,0.0,0.0,0.0,0.0,0.0,0.0,0.0,0.0,1.0336740016937256,-1.541156530380249,-1.0953110456466675,-0.7137549519538879,0.009314626455307007,0.6997682452201843,0.03406747058033943,51.49863815307617,-0.17746679484844208,33624,6,0.994140625,0.03271484375,0.017578125,-0.0,-0.0,-0.0,0.0,0.0,-0.18310546875,-1.6806894540786743,0.008913522586226463,-1.217231273651123,41.689998626708984,110581.0,-743.4641723632812,1588,65356,0.0,0.0,0,1384450,1502420,-98,-3.75,True
0.0,0.0,0.0,0.0,0.0,0.0,0.0,0.0,0.0,1.0641216039657593,-1.5463547706604004,-1.12580406665802,-0.7133679986000061,0.009287144057452679,0.7002475261688232,0.03407828137278557,51.49864196777344,-0.17746379971504211,32244,6,0.9970703125,0.0283203125,0.02001953125,0.04885197803378105,0.04885197803378105,0.04885197803378105,-0.244140625,-0.06103515625,-0.1220703125,-1.6809359788894653,0.008914642035961151,-1.2158886194229126,41.709999084472656,110596.0,-744.632080078125,1586,65355,0.0,0.0,0,1384450,1503021,-97,-3.25,True
0.0,0.0,0.0,0.0,0.0,0.0,0.0,0.0,0.0,1.0578126907348633,-1.5433624982833862,-1.1198455095291138,-0.7134944796562195,0.009276806376874447,0.7000657916069031,0.0343620665371418,51.49858093261719,-0.17754119634628296,38457,6,0.99560546875,0.03173828125,0.017578125,-0.0,-0.0,-0.0,-0.18310546875,0.0,-0.3662109375,-1.6819849014282227,0.008921109139919281,-1.216253399848938,41.75,110614.0,-746.0272216796875,1586,65355,0.0,0.0,0,1384450,1508429,-98,-3.5,True
0.0,0.0,0.0,0.0,0.0,0.0,0.0,0.0,0.0,1.0408169031143188,-1.5415065288543701,-1.102907657623291,-0.7136322259902954,0.009479185566306114,0.699885904788971,0.03422267735004425,51.49857711791992,-0.17754590511322021,38778,6,0.99267578125,0.02685546875,0.01953125,0.04885197803378105,0.04885197803378105,0.04885197803378105,0.0,-0.1220703125,-0.18310546875,-1.6820471286773682,0.008922142907977104,-1.2148487567901611,41.72999954223633,110607.0,-745.48291015625,1590,65356,0.0,0.0,0,1384450,1509029,-98,-3.0,True
0.0,0.0,0.0,0.0,0.0,0.0,0.0,0.0,0.0,1.04738450050354,-1.541762113571167,-1.1091123819351196,-0.7135213017463684,0.009377490729093552,0.7000067830085754,0.03407135233283043,51.498573303222656,-0.1775512993335724,39419,6,0.994140625,0.03271484375,0.0185546875,-0.0,-0.0,-0.0,-0.1220703125,0.06103515625,-0.30517578125,-1.681923270225525,0.008920709602534771,-1.2169249057769775,41.720001220703125,110603.0,-745.1710815429688,1586,65355,0.0,0.0,0,1384450,1509625,-99,-3.0,True
0.0,0.0,0.0,0.0,0.0,0.0,0.0,0.0,0.0,1.0325218439102173,-1.5419288873672485,-1.0941799879074097,-0.7137911915779114,0.009314281865954399,0.6997485160827637,0.03407038748264313,51.49856185913086,-0.17755690217018127,40644,6,0.9990234375,0.03515625,0.02392578125,0.04885197803378105,0.04885197803378105,0.04885197803378105,-0.18310546875,-0.06103515625,-0.18310546875,-1.6818617582321167,0.00892062857747078,-1.2149105072021484,41.7599983215332,110618.0,-746.333740234375,1585,65355,0.0,0.0,0,1384450,1510230,-99,-2.25,True
0.0,0.0,0.0,0.0,0.0,0.0,0.0,0.0,0.0,1.031751275062561,-1.5405473709106445,-1.0932235717773438,-0.7138113975524902,0.009204676374793053,0.6997054219245911,0.03406691551208496,51.49856185913086,-0.1775573045015335,42222,6,0.99365234375,0.0341796875,0.02001953125,0.04885197803378105,0.04885197803378105,0.04885197803378105,-0.30517578125,-0.06103515625,-0.244140625,-1.6819849014282227,0.008920949883759022,-1.2155210971832275,41.7599983215332,110613.0,-745.9479370117188,1586,65355,0.0,0.0,0,1384450,1510828,-93,-2.0,True
0.0,0.0,0.0,0.0,0.0,0.0,0.0,0.0,0.0,1.0398869514465332,-1.5431137084960938,-1.1015782356262207,-0.7137482166290283,0.009227444417774677,0.6998170614242554,0.03416455537080765,51.49855422973633,-0.17755840718746185,44652,7,0.998046875,0.03173828125,0.01806640625,0.04885197803378105,0.04885197803378105,0.04885197803378105,-0.244140625,-0.18310546875,-0.30517578125,-1.6821702718734741,0.008922623470425606,-1.2155812978744507,41.7400016784668,110608.0,-745.5621948242188,1586,65355,0.0,0.0,0,1384450,1511437,-98,-3.0,True
0.0,0.0,0.0,0.0,0.0,0.0,0.0,0.0,0.0,1.041480302810669,-1.5411063432693481,-1.1030433177947998,-0.7136232852935791,0.009295624680817127,0.6998975872993469,0.034040722995996475,51.4985466003418,-0.17755940556526184,47800,7,0.994140625,0.02978515625,0.017578125,0.04885197803378105,0.04885197803378105,0.04885197803378105,-0.1220703125,-0.06103515625,-0.18310546875,-1.6816761493682861,0.008918795734643936,-1.2163152694702148,41.720001220703125,110599.0,-744.8645629882812,1585,65355,0.0,0.0,0,1384450,1512033,-99,-3.75,True
0.0,0.0,0.0,0.0,0.0,0.0,0.0,0.0,0.0,1.0596885681152344,-1.5408543348312378,-1.1214159727096558,-0.7134209871292114,0.009180986322462559,0.7000932097434998,0.034278504550457,51.49853515625,-0.17756080627441406,51293,7,0.99365234375,0.03369140625,0.02099609375,0.04885197803378105,0.04885197803378105,0.04885197803378105,-0.1220703125,-0.06103515625,-0.1220703125,-1.6822315454483032,0.008922228589653969,-1.216863751411438,41.720001220703125,110613.0,-745.9479370117188,1585,65355,0.0,0.0,0,1384450,1512631,-98,-2.5,True
0.0,0.0,0.0,0.0,0.0,0.0,0.0,0.0,0.0,1.0527195930480957,-1.5449029207229614,-1.11488938331604,-0.7135636806488037,0.009384416975080967,0.7000219225883484,0.034329723566770554,51.498497009277344,-0.1775761991739273,60443,7,0.99609375,0.03369140625,0.0205078125,-0.0,-0.0,-0.0,-0.244140625,0.0,-0.3662109375,-1.6819236278533936,0.008921344764530659,-1.2160696983337402,41.810001373291016,110642.0,-748.1939086914062,1586,65355,0.0,0.0,0,1384450,1514432,-98,-3.5,True
0.0,0.0,0.0,0.0,0.0,0.0,0.0,0.0,0.0,1.068055272102356,-1.5447559356689453,-1.129976749420166,-0.7132229208946228,0.009467505849897861,0.7003528475761414,0.03409285098314285,51.49848175048828,-0.17758730053901672,62761,7,0.99755859375,0.0322265625,0.013671875,0.04885197803378105,0.04885197803378105,0.04885197803378105,-0.06103515625,-0.06103515625,-0.30517578125,-1.6819231510162354,0.008920551277697086,-1.217291235923767,41.83000183105469,110642.0,-748.1939086914062,1586,65355,0.0,0.0,0,1384450,1515037,-96,-5.5,True
0.0,0.0,0.0,0.0,0.0,0.0,0.0,0.0,0.0,1.0438073873519897,-1.5420820713043213,-1.1057039499282837,-0.7135207056999207,0.009538576006889343,0.7000067830085754,0.03402677923440933,51.49846267700195,-0.17759749293327332,64373,7,0.994140625,0.0361328125,0.01904296875,0.04885197803378105,0.04885197803378105,0.04885197803378105,0.0,-0.06103515625,-0.30517578125,-1.6814295053482056,0.008917517028748989,-1.2164984941482544,41.83000183105469,110630.0,-747.2637939453125,1586,65355,0.0,0.0,0,1384450,1515642,-96,-2.75,True
0.0,0.0,0.0,0.0,0.0,0.0,0.0,0.0,0.0,1.0464355945587158,-1.5455769300460815,-1.1082172393798828,-0.7136904001235962,0.009236305020749569,0.6999186277389526,0.034191638231277466,51.49845504760742,-0.17760129272937775,65636,7,0.99560546875,0.033203125,0.02099609375,-0.0,-0.0,-0.0,-0.244140625,0.18310546875,-0.42724609375,-1.6814903020858765,0.008916487917304039,-1.217537522315979,41.779998779296875,110615.0,-746.1011962890625,1585,65355,0.0,0.0,0,1384450,1516235,-99,-1.5,True
0.0,0.0,0.0,0.0,0.0,0.0,0.0,0.0,0.0,0.9975412487983704,-1.5391037464141846,-1.0592963695526123,-0.714478075504303,0.009124417789280415,0.6990216374397278,0.034334566444158554,51.49842071533203,-0.1776231974363327,69898,7,0.99658203125,0.02978515625,0.02099609375,0.04885197803378105,0.04885197803378105,0.04885197803378105,-0.18310546875,-0.30517578125,-0.18310546875,-1.6811209917068481,0.008915680460631847,-1.2171090841293335,41.72999954223633,110594.0,-744.4735107421875,1585,65355,0.0,0.0,0,1384450,1518638,-98,-3.0,True
0.0,0.0,0.0,0.0,0.0,0.0,0.0,0.0,0.0,1.032461404800415,-1.5455273389816284,-1.094156265258789,-0.7139443755149841,0.009168148040771484,0.6996721029281616,0.03418607637286186,51.498416900634766,-0.17762799561023712,70731,7,1.0009765625,0.03515625,0.02392578125,0.04885197803378105,0.04885197803378105,0.04885197803378105,-0.244140625,-0.1220703125,-0.30517578125,-1.6806882619857788,0.00891177635639906,-1.2166839838027954,41.7400016784668,110590.0,-744.1669921875,1586,65355,0.0,0.0,0,1384450,1519243,-99,-2.5,True
0.0,0.0,0.0,0.0,0.0,0.0,0.0,0.0,0.0,1.0199722051620483,-1.5411465167999268,-1.0814507007598877,-0.7139432430267334,0.009325714781880379,0.6995846629142761,0.03393886983394623,51.498409271240234,-0.17763260006904602,70878,7,0.99853515625,0.033203125,0.0224609375,0.04885197803378105,0.04885197803378105,0.04885197803378105,-0.06103515625,-0.18310546875,-0.244140625,-1.6809360980987549,0.00891480129212141,-1.2161325216293335,41.709999084472656,110582.0,-743.54345703125,1586,65355,0.0,0.0,0,1384450,1519839,-98,-2.75,True
0.0,0.0,0.0,0.0,0.0,0.0,0.0,0.0,0.0,1.0078692436218262,-1.5412129163742065,-1.0694066286087036,-0.7140821814537048,0.009445221163332462,0.6994453072547913,0.03385603427886963,51.49840545654297,-0.17763589322566986,70933,7,0.998046875,0.033203125,0.025390625,0.04885197803378105,0.04885197803378105,0.04885197803378105,-0.18310546875,-0.1220703125,-0.18310546875,-1.6803804636001587,0.008910891599953175,-1.2163169384002686,41.720001220703125,110584.0,-743.7019653320312,1586,65355,0.0,0.0,0,1384450,1520442,-100,-0.75,True
0.0,0.0,0.0,0.0,0.0,0.0,0.0,0.0,0.0,1.0451748371124268,-1.543776273727417,-1.1066205501556396,-0.7136525511741638,0.009181116707623005,0.6999274492263794,0.03403468430042267,51.49840545654297,-0.17763669788837433,71051,7,0.9951171875,0.0302734375,0.01806640625,-0.0,-0.0,-0.0,-0.244140625,0.0,-0.3662109375,-1.6808127164840698,0.008914003148674965,-1.2163158655166626,41.75,110609.0,-745.6361694335938,1585,65355,0.0,0.0,0,1384450,1521044,-98,-2.25,True
0.0,0.0,0.0,0.0,0.0,0.0,0.0,0.0,0.0,1.0607928037643433,-1.5417087078094482,-1.1225337982177734,-0.713307797908783,0.009376744739711285,0.7002150416374207,0.03409024327993393,51.49840545654297,-0.17763720452785492,70576,7,0.99951171875,0.02978515625,0.02001953125,0.04885197803378105,0.04885197803378105,0.04885197803378105,-0.06103515625,-0.06103515625,-0.1220703125,-1.6816760301589966,0.008918637409806252,-1.2163764238357544,41.810001373291016,110651.0,-748.8914794921875,1585,65355,0.0,0.0,0,1384450,1521650,-98,-3.75,True
0.0,0.0,0.0,0.0,0.0,0.0,0.0,0.0,0.0,1.056279182434082,-1.5405256748199463,-1.1181840896606445,-0.7135055065155029,0.009177656844258308,0.7000018358230591,0.0344061478972435,51.49840545654297,-0.17763909697532654,70112,7,0.99951171875,0.03564453125,0.0224609375,-0.0,-0.0,-0.0,-0.1220703125,0.0,-0.18310546875,-1.680936336517334,0.008915118873119354,-1.2155828475952148,41.84000015258789,110662.0,-749.7476196289062,1588,65356,0.0,0.0,0,1384450,1522247,-95,-2.0,True
0.0,0.0,0.0,0.0,0.0,0.0,0.0,0.0,0.0,1.0506383180618286,-1.5408543348312378,-1.1126558780670166,-0.7135308980941772,0.009337951429188251,0.6999772191047668,0.03432299569249153,51.4984016418457,-0.17764410376548767,70598,6,1.0,0.0322265625,0.01904296875,-0.0,-0.0,-0.0,-0.30517578125,0.0,-0.244140625,-1.6816152334213257,0.008919508196413517,-1.2154595851898193,41.84000015258789,110652.0,-748.9707641601562,1585,65355,0.0,0.0,0,1384450,1522853,-97,-1.75,True
0.0,0.0,0.0,0.0,0.0,0.0,0.0,0.0,0.0,1.0629796981811523,-1.5417394638061523,-1.124606728553772,-0.7133510112762451,0.009204869158565998,0.7001803517341614,0.034176718443632126,51.49839401245117,-0.17765319347381592,69995,7,1.001953125,0.0302734375,0.02197265625,0.04885197803378105,0.04885197803378105,0.04885197803378105,-0.244140625,-0.06103515625,-0.1220703125,-1.6814906597137451,0.008917123079299927,-1.2157667875289917,41.880001068115234,110681.0,-751.2167358398438,1585,65355,0.0,0.0,0,1384450,1524046,-97,-2.5,True
0.0,0.0,0.0,0.0,0.0,0.0,0.0,0.0,0.0,1.0689303874969482,-1.5436816215515137,-1.130699634552002,-0.7133265137672424,0.009181221015751362,0.7002424597740173,0.03427509963512421,51.49839401245117,-0.17765140533447266,69408,7,0.9921875,0.029296875,0.015625,-0.0,-0.0,-0.0,-0.1220703125,0.06103515625,-0.30517578125,-1.6803797483444214,0.008909939788281918,-1.2169893980026245,41.880001068115234,110671.0,-750.4451904296875,1588,65356,0.0,0.0,0,1384450,1525250,-98,-4.5,True
0.0,0.0,0.0,0.0,0.0,0.0,0.0,0.0,0.0,1.0384266376495361,-1.541114330291748,-1.0999187231063843,-0.7137063145637512,0.009218646213412285,0.6998196840286255,0.03406377509236336,51.49839401245117,-0.177653506398201,68637,7,0.99267578125,0.033203125,0.02099609375,0.04885197803378105,0.04885197803378105,0.04885197803378105,-0.30517578125,-0.1220703125,-0.30517578125,-1.6810590028762817,0.008914805017411709,-1.2179642915725708,41.849998474121094,110666.0,-750.0541381835938,1586,65355,0.0,0.0,0,1384450,1525852,-99,-2.25,True
